City_ID,City,Lat,Lng,Max Temp,Humidity,Cloudiness,Wind Speed,Country,Date
0,sorong,-0.8833,131.25,298.07,87,79,4.65,ID,1691693308
1,torrington,41.8007,-73.1212,296.92,97,100,1.87,US,1691693308
2,papatowai,-46.5619,169.4708,275.61,85,100,2.68,NZ,1691693308
3,bredasdorp,-34.5322,20.0403,286.57,73,0,0.75,ZA,1691693308
4,haiku-pauwela,20.9219,-156.3051,296.16,83,75,7.72,US,1691693309
5,blackmans bay,-43.0167,147.3167,282.33,83,100,3.05,AU,1691693309
6,albany,42.6001,-73.9662,298.51,94,100,0.77,US,1691693084
7,hithadhoo,-0.6,73.0833,300.93,78,78,4.57,MV,1691693309
8,usogorsk,63.4106,48.6872,291.97,67,7,1.94,RU,1691693310
9,waitangi,-43.9535,-176.5597,281.38,84,54,5.8,NZ,1691693310
10,sisimiut,66.9395,-53.6735,280.4,90,100,2.42,GL,1691693310
11,binzhou,37.3667,118.0167,296.25,61,0,1.76,CN,1691693310
12,susuman,62.7833,148.1667,281.86,70,6,0.73,RU,1691693311
13,nova vicosa,-17.8919,-39.3719,297.82,63,100,4.29,BR,1691693311
14,talnakh,69.4865,88.3972,285.49,65,83,8.05,RU,1691693311
15,adamstown,-25.066,-130.1015,291.09,63,38,10.44,PN,1691693312
16,saint-philippe,-21.3585,55.7679,292.92,80,34,1.83,RE,1691693312
17,margaret river,-33.95,115.0667,285.97,73,92,2.3,AU,1691693313
18,enewetak,11.3474,162.3373,301.43,77,41,4.75,MH,1691693313
19,hermanus,-34.4187,19.2345,289.11,62,0,1.31,ZA,1691693314
20,palu,-0.8917,119.8707,297.23,96,100,1.07,ID,1691693314
21,port-aux-francais,-49.35,70.2167,278.18,89,100,15.24,TF,1691693314
22,longyearbyen,78.2186,15.6401,283.06,76,100,1.54,SJ,1691693314
23,tesistan,20.7833,-103.4833,297.72,38,26,1.73,MX,1691693314
24,ancud,-41.8697,-73.8203,281.35,78,100,7.85,CL,1691693195
25,carnarvon,-24.8667,113.6333,291.74,84,6,1.79,AU,1691693266
26,puerto natales,-51.7236,-72.4875,277.72,79,100,3.75,CL,1691693315
27,stanley,54.868,-1.6985,296.92,72,20,2.57,GB,1691693311
28,invercargill,-46.4,168.35,274.27,91,100,1.79,NZ,1691693315
29,praia da vitoria,38.7333,-27.0667,299.29,73,40,3.46,PT,1691693316
30,punta arenas,-53.15,-70.9167,277.27,71,100,6.49,CL,1691693316
31,hamilton,39.1834,-84.5333,300.51,71,100,2.06,US,1691692791
32,archangelos,36.2149,28.1149,298.32,82,0,4.46,GR,1691693316
33,igbor,7.4527,8.6098,296.53,93,100,0.38,NG,1691693317
34,nova sintra,14.8667,-24.7167,296.25,73,23,8.0,CV,1691693317
35,petropavlovsk-kamchatsky,53.0452,158.6483,280.48,100,20,4.0,RU,1691693152
36,ushuaia,-54.8,-68.3,275.96,87,75,5.66,AR,1691693317
37,tiksi,71.6872,128.8694,288.54,50,1,2.33,RU,1691693317
38,mudhol,16.35,75.2833,296.71,77,97,5.94,IN,1691693317
39,arad,46.3333,21.75,292.1,69,65,1.32,RO,1691693318
40,thompson,55.7435,-97.8558,292.24,45,75,1.54,CA,1691693318
41,andovoranto,-18.95,49.1,293.29,88,37,1.0,MG,1691693318
42,madimba,-10.4,40.3333,295.77,83,20,5.14,TZ,1691693318
43,hawaiian paradise park,19.5933,-154.9731,297.06,94,100,3.09,US,1691693319
44,longboat key,27.4125,-82.659,309.31,64,0,5.14,US,1691693319
45,ola,59.5833,151.2833,284.36,80,9,1.49,RU,1691693132
46,iqaluit,63.7506,-68.5145,280.0,87,20,3.6,CA,1691693319
47,luderitz,-26.6481,15.1594,293.82,51,5,1.95,NA,1691693320
48,yellowknife,62.456,-114.3525,293.44,52,75,3.58,CA,1691693320
49,grytviken,-54.2811,-36.5092,270.12,96,92,3.51,GS,1691693320
50,pangai,-19.8,-174.35,297.21,94,75,2.57,TO,1691693320
51,nagqu,31.5,92.0,279.47,92,100,1.35,CN,1691693321
52,floro,61.5996,5.0328,283.69,93,75,2.57,NO,1691693321
53,taroa,8.7058,171.2275,300.77,72,25,5.96,MH,1691693321
54,the pas,53.8251,-101.2541,290.16,63,0,6.17,CA,1691693321
55,port lincoln,-34.7333,135.8667,282.62,79,5,2.56,AU,1691693322
56,port macquarie,-31.4333,152.9167,281.98,64,0,4.61,AU,1691693322
57,lebu,-37.6167,-73.65,283.81,82,39,6.69,CL,1691693295
58,nabire,-3.3667,135.4833,297.3,88,98,1.57,ID,1691693322
59,edinburgh of the seven seas,-37.0676,-12.3116,285.15,63,22,10.8,SH,1691693322
60,ystad,55.4297,13.8204,288.56,77,94,4.35,SE,1691693322
61,palmer,42.1584,-72.3287,298.9,69,100,3.6,US,1691693323
62,bogale,16.2833,95.4,298.84,92,100,2.41,MM,1691693323
63,pisco,-13.7,-76.2167,294.18,68,75,6.69,PE,1691693323
64,olonkinbyen,70.9221,-8.7187,280.21,96,100,5.41,SJ,1691693323
65,ivanivka,46.7208,34.553,297.74,67,87,2.49,UA,1691693324
66,miyaly,48.8844,53.7836,300.33,29,0,4.24,KZ,1691693324
67,sinjai,-5.1241,120.253,295.24,91,69,1.69,ID,1691693324
68,constantia,44.1833,28.65,294.65,59,100,2.77,RO,1691693045
69,udachny,66.4167,112.4,290.07,87,52,2.21,RU,1691693324
70,queenstown,-31.8976,26.8753,286.41,46,0,2.4,ZA,1691693324
71,island harbour,50.724,-1.2758,295.46,82,36,0.89,GB,1691693325
72,sarai,53.7458,41.0213,293.97,69,5,3.25,RU,1691693325
73,anadyr,64.75,177.4833,281.43,87,100,3.0,RU,1691693325
74,ilulissat,69.2167,-51.1,281.16,71,75,2.06,GL,1691693325
75,berbera,10.4396,45.0143,307.75,40,44,3.22,SO,1691693326
76,san patricio,28.017,-97.5169,311.55,40,0,8.08,US,1691693326
77,vorgashor,67.5833,63.95,280.46,92,44,3.53,RU,1691693326
78,yeppoon,-23.1333,150.7333,284.03,80,0,0.35,AU,1691693326
79,rawson,-43.3002,-65.1023,291.62,29,64,6.56,AR,1691693326
80,mascara,35.3966,0.1403,309.66,34,0,1.63,DZ,1691693327
81,banswara,23.55,74.45,297.97,88,97,3.25,IN,1691693327
82,urangan,-25.3,152.9,289.51,73,0,2.1,AU,1691693327
83,kourou,5.1552,-52.6478,305.18,60,15,3.92,GF,1691693327
84,roghun,38.7826,69.8708,295.44,36,0,0.68,TJ,1691693327
85,qingdao,36.0986,120.3719,296.93,78,0,4.0,CN,1691693327
86,tazovsky,67.4667,78.7,281.59,68,3,9.4,RU,1691693328
87,revda,56.801,59.9303,284.27,91,9,1.91,RU,1691693328
88,port mathurin,-19.6833,63.4167,295.93,79,18,8.21,MU,1691693328
89,mili,6.0815,171.735,301.51,75,71,4.76,MH,1691693328
90,amga,60.8953,131.9608,285.4,98,0,1.2,RU,1691693328
91,gilgit,35.9221,74.3087,302.48,49,51,0.13,PK,1691693329
92,qaqortoq,60.7167,-46.0333,281.69,71,59,1.84,GL,1691693329
93,chonchi,-42.6128,-73.8092,281.71,87,100,4.03,CL,1691693329
94,aykhal,66.0,111.5,287.75,87,100,1.78,RU,1691693329
95,thayetmyo,19.3167,95.1833,297.24,95,100,2.68,MM,1691693329
96,nyrob,60.733,56.7202,285.7,82,0,1.51,RU,1691693330
97,valday,57.9747,33.2525,288.4,64,100,0.93,RU,1691693330
98,uturoa,-16.7333,-151.4333,297.97,67,41,7.71,PF,1691693330
99,wahpeton,46.2652,-96.6059,296.44,64,0,6.69,US,1691693330
100,kermanshah,34.3142,47.065,303.65,7,40,3.09,IR,1691693330
101,bubaque,11.2833,-15.8333,300.28,81,100,5.41,GW,1691693330
102,kingston,17.997,-76.7936,305.68,70,20,10.29,JM,1691693331
103,whitehorse,60.7161,-135.0538,290.58,55,75,4.12,CA,1691693331
104,howard springs,-12.497,131.047,296.1,71,97,3.75,AU,1691693331
105,jamestown,42.097,-79.2353,297.29,68,100,5.66,US,1691693211
106,weno,7.4515,151.8468,300.16,76,80,1.93,FM,1691693337
107,broome,42.2506,-75.833,295.36,83,100,5.14,US,1691693337
108,cabedelo,-6.9811,-34.8339,301.52,78,8,7.34,BR,1691693339
109,torghay,49.6339,63.4981,295.54,51,16,7.51,KZ,1691693339
110,naze,28.3667,129.4833,297.66,88,100,1.77,JP,1691693339
111,east london,-33.0153,27.9116,291.67,88,0,5.14,ZA,1691693339
112,rongelap,11.1635,166.8941,301.17,76,35,4.31,MH,1691693339
113,ribeira grande,38.5167,-28.7,299.37,65,20,5.14,PT,1691693340
114,walvis bay,-22.9575,14.5053,287.09,94,47,3.09,NA,1691693340
115,thakurgaon,26.0333,88.4667,300.97,84,100,2.41,BD,1691693340
116,afaahiti,-17.75,-149.2833,298.08,65,100,7.79,PF,1691693340
117,kotabumi,-4.8333,104.9,296.03,92,30,2.2,ID,1691693340
118,inhambane,-23.865,35.3833,294.14,77,0,3.13,MZ,1691693341
119,nemuro,43.3236,145.575,291.97,99,100,7.11,JP,1691693341
120,bethel,41.3712,-73.414,297.01,83,100,1.54,US,1691693341
121,atafu village,-8.5421,-172.5159,301.41,69,27,5.78,TK,1691693342
122,porto novo,6.4965,2.6036,299.05,84,0,3.57,BJ,1691693342
123,san-pedro,4.7485,-6.6363,296.99,87,100,3.22,CI,1691693343
124,rio grande,-32.035,-52.0986,297.21,88,100,4.61,BR,1691693343
125,saint-pierre,-21.3393,55.4781,292.97,73,0,1.54,RE,1691693343
126,quellon,-43.1167,-73.6167,282.29,81,100,8.23,CL,1691693343
127,taro,-8.3862,115.28,293.15,90,63,0.87,ID,1691693344
128,kasongo-lunda,-6.4667,16.8167,300.59,32,100,0.86,CD,1691693344
129,murghob,38.1702,73.9667,288.72,28,100,1.51,TJ,1691693344
130,aripuana,-9.1667,-60.6333,311.73,21,86,1.89,BR,1691693344
131,mahina,-17.5065,-149.489,299.02,65,20,1.54,PF,1691693345
132,cam ranh,11.9214,109.1591,303.13,79,20,2.57,VN,1691693345
133,kodiak,57.79,-152.4072,284.88,87,100,3.09,US,1691693345
134,la gi,10.6667,107.7833,299.44,88,27,4.39,VN,1691693345
135,klyuchi,52.2667,79.1667,290.67,88,95,4.02,RU,1691693346
136,antsohihy,-14.8796,47.9875,294.65,80,2,0.35,MG,1691693346
137,saldanha,-33.0117,17.9442,288.18,74,0,2.62,ZA,1691693346
138,jodiya bandar,22.7167,70.2833,300.85,78,100,7.14,IN,1691693347
139,wailua homesteads,22.0669,-159.378,300.59,77,20,5.66,US,1691693347
140,vega de alatorre,20.0333,-96.6333,305.83,64,4,5.82,MX,1691693347
141,iskateley,67.6803,53.1512,284.6,78,6,3.33,RU,1691693347
142,tura,25.5198,90.2201,297.22,98,100,1.93,IN,1691693347
143,bardai,11.65,7.2333,295.74,88,100,1.87,NG,1691693348
144,canas,10.4294,-85.0931,305.15,78,84,3.04,CR,1691693348
145,pathein,16.7833,94.7333,298.63,91,100,2.44,MM,1691693348
146,ta`u,-14.2336,-169.5144,300.25,78,100,6.03,AS,1691693348
147,sao jose da coroa grande,-8.8978,-35.1478,299.08,70,6,3.91,BR,1691693348
148,borzya,50.3833,116.5167,289.3,89,100,1.69,RU,1691693349
149,rockdale,33.6501,-84.0166,301.05,65,0,3.6,US,1691693349
150,west island,-12.1568,96.8225,298.14,88,75,6.17,CC,1691693349
151,rio bueno,-40.3167,-72.9667,284.23,93,100,3.42,CL,1691693172
152,sept-iles,50.2001,-66.3821,291.44,75,75,2.57,CA,1691693350
153,vila franca do campo,37.7167,-25.4333,297.38,84,35,0.86,PT,1691693350
154,khorinsk,52.1657,109.7726,287.34,94,100,2.85,RU,1691693350
155,yermentau,51.6214,73.1069,288.48,78,100,3.47,KZ,1691693350
156,jimenez,28.3333,-105.4,309.77,19,12,4.5,MX,1691693350
157,tralee,52.2704,-9.7026,290.53,90,86,3.84,IE,1691693351
158,bilibino,68.0546,166.4372,282.13,82,100,1.98,RU,1691693351
159,utrik,11.2278,169.8474,300.84,70,11,5.49,MH,1691693351
160,yuzhno-kurilsk,44.0306,145.8556,293.09,97,100,5.24,RU,1691693351
161,kuraymah,18.55,31.85,308.14,32,8,4.59,SD,1691693352
162,vytegra,61.0064,36.4481,289.99,78,19,1.17,RU,1691693352
163,san antonio de pale,-1.4014,5.6325,296.92,86,61,4.9,GQ,1691693352
164,illizi,26.4833,8.4667,310.04,11,0,4.13,DZ,1691693352
165,georgetown,5.4112,100.3354,299.79,91,20,1.03,MY,1691693272
166,mana,5.6592,-53.7767,302.45,65,91,4.9,GF,1691693353
167,santa elena de uairen,4.6167,-61.1333,301.42,49,24,4.88,VE,1691693353
168,kanniyakumari,8.0833,77.5667,299.29,84,45,7.11,IN,1691693353
169,fada,9.5667,8.3,292.97,98,100,0.48,NG,1691693353
170,aasiaat,68.7098,-52.8699,276.46,88,100,4.75,GL,1691693354
171,alofi,-19.0595,-169.9187,294.09,94,100,1.54,NU,1691693354
172,colonia,50.9333,6.95,296.38,57,0,1.54,DE,1691693354
173,cuenca,-2.8833,-78.9833,293.22,42,75,4.63,EC,1691693354
174,les anglais,18.3054,-74.2197,303.53,73,46,4.76,HT,1691693354
175,moyale,3.5167,39.0584,297.4,45,90,3.96,KE,1691693355
176,vilyuysk,63.7553,121.6247,286.45,74,25,2.61,RU,1691693355
177,kapuskasing,49.4169,-82.4331,291.2,68,75,3.09,CA,1691693355
178,burry port,51.6843,-4.2469,294.25,93,75,5.66,GB,1691693355
179,mar''ina horka,53.509,28.147,288.27,74,100,2.14,BY,1691693355
180,kete krachi,7.7939,-0.0498,297.42,88,21,2.48,GH,1691693356
181,fisterra,42.9049,-9.2629,295.23,91,22,3.07,ES,1691693356
182,egilsstadir,65.2653,-14.3948,284.1,71,75,6.17,IS,1691693356
183,juan griego,11.0817,-63.9655,310.22,49,60,8.23,VE,1691693356
184,wainwright,52.839,-110.8572,295.55,36,31,8.29,CA,1691693357
185,yelizovo,53.1873,158.3805,281.23,100,20,4.0,RU,1691693357
186,rakvere,59.3464,26.3558,286.23,85,60,2.54,EE,1691693357
187,ostroleka,53.0862,21.5757,290.8,49,100,1.92,PL,1691693303
188,crane,31.3974,-102.3501,313.48,14,0,2.21,US,1691693357
189,delfzijl,53.33,6.9181,292.6,81,100,0.45,NL,1691693358
190,nioro du rip,13.75,-15.8,302.54,65,100,6.32,SN,1691693358
191,gambela,8.25,34.5833,295.3,94,100,1.38,ET,1691693358
192,champerico,14.3,-91.9167,307.45,69,98,4.87,GT,1691693358
193,nouadhibou,20.931,-17.0347,296.14,83,46,9.26,MR,1691693359
194,touros,-5.1989,-35.4608,300.42,69,23,8.04,BR,1691693359
195,nantucket,41.2835,-70.0995,299.23,69,0,4.63,US,1691693272
196,fangshan,39.6983,115.9925,298.65,90,50,0.5,CN,1691693359
197,safford,32.834,-109.7076,308.77,34,20,3.09,US,1691693359
198,antsiranana,-12.2787,49.2917,295.57,79,0,5.65,MG,1691693360
199,cabo san lucas,22.8909,-109.9124,308.49,70,75,2.57,MX,1691693197
200,basco,20.4487,121.9702,301.36,85,21,9.83,PH,1691693360
201,maraba,-5.3686,-49.1178,307.25,46,40,3.6,BR,1691693225
202,malango,-2.9627,119.9001,292.62,99,100,0.2,ID,1691693361
203,lethbridge,49.7,-112.8186,298.6,29,40,6.17,CA,1691693220
204,arkhangel'sk,64.5401,40.5433,292.48,77,10,1.4,RU,1691693361
205,sainte-marie-aux-mines,48.2468,7.1853,296.88,41,0,1.54,FR,1691693361
206,nahariyya,33.0059,35.0941,302.1,61,0,1.65,IL,1691693361
207,hasaki,35.7333,140.8333,300.54,88,15,4.53,JP,1691693361
208,tsiombe,-25.3,45.4833,290.31,72,34,3.61,MG,1691693362
209,poronaysk,49.2167,143.1167,285.28,97,100,2.06,RU,1691693362
210,codrington,-38.2667,141.9667,282.71,84,100,3.71,AU,1691693362
211,sittwe,20.15,92.9,299.02,87,100,1.92,MM,1691693363
212,harstad,68.799,16.5293,289.81,76,100,0.45,NO,1691693363
213,sodra sandby,56.5667,16.6167,288.07,84,100,6.67,SE,1691693363
214,mendefera,14.8872,38.8153,291.66,80,91,1.87,ER,1691693363
215,neiafu,-18.65,-173.9833,295.53,88,40,0.0,TO,1691693363
216,callao,-12.0667,-77.15,296.33,68,100,6.17,PE,1691693364
217,phibun mangsahan,15.2447,105.2291,302.14,90,77,2.93,TH,1691693364
218,keflavik,64.0049,-22.5624,292.1,77,75,5.14,IS,1691693364
219,st. john's,47.5649,-52.7093,294.64,94,100,2.57,CA,1691693233
220,kiunga,-6.1219,141.2906,295.01,89,97,1.71,PG,1691693365
221,puerto ayora,-0.7393,-90.3518,302.13,93,51,3.13,EC,1691693365
222,lihue,21.9789,-159.3672,300.92,70,20,5.66,US,1691693365
223,newman,37.3138,-121.0208,304.39,17,0,0.64,US,1691693365
224,avarua,-21.2078,-159.775,297.18,78,75,6.69,CK,1691693366
225,berdigestyakh,62.0989,126.6992,285.3,95,0,2.59,RU,1691693367
226,kapa'a,22.0752,-159.319,301.33,77,20,5.66,US,1691693367
227,siddipet,18.1,78.85,297.72,77,100,1.85,IN,1691693368
228,inarajan village,13.2736,144.7484,299.69,96,100,9.68,GU,1691693368
229,klaksvik,62.2266,-6.589,285.66,87,83,6.19,FO,1691693368
230,howrah,22.5892,88.3103,302.15,89,75,2.57,IN,1691693127
231,fairbanks,64.8378,-147.7164,293.83,93,100,2.06,US,1691693358
232,lompoc,34.6391,-120.4579,299.09,83,100,2.68,US,1691693369
233,arraial do cabo,-22.9661,-42.0278,299.13,78,0,7.72,BR,1691693218
234,port isabel,26.0734,-97.2086,309.27,59,40,10.29,US,1691693369
235,kuta,-8.7233,115.1723,297.12,88,20,2.68,ID,1691693369
236,laguna,38.421,-121.4238,304.99,53,0,2.57,US,1691693370
237,romanovka,51.7443,42.7527,295.91,58,100,4.32,RU,1691693370
238,taourirt,34.4073,-2.8973,309.48,23,2,5.09,MA,1691693370
239,el battan,36.8037,9.8442,298.97,52,0,2.63,TN,1691693371
240,ceres,37.5949,-120.9577,305.26,47,0,3.6,US,1691693116
241,cambria,35.5641,-121.0808,300.68,67,38,2.37,US,1691693371
242,gorazde,43.6669,18.9764,287.87,81,3,0.64,BA,1691693371
243,salinopolis,-0.6136,-47.3561,301.19,69,27,5.77,BR,1691693111
244,chigorodo,7.6664,-76.6811,305.04,70,40,1.54,CO,1691693372
245,puerto baquerizo moreno,-0.9,-89.6,300.7,69,75,7.2,EC,1691693372
246,tolanaro,-25.0319,46.9987,291.19,88,75,3.09,MG,1691693372
247,gadzhiyevo,69.2551,33.3362,292.06,67,0,4.7,RU,1691693372
248,ati,13.2154,18.3353,301.76,64,19,2.86,TD,1691693373
249,karaton,-6.3424,106.1045,295.08,90,5,0.73,ID,1691693373
250,santa terezinha,-29.9002,-50.0904,293.04,86,18,3.77,BR,1691693373
251,moratalla,38.1893,-1.8918,309.47,14,3,4.41,ES,1691693373
252,moratuwa,6.773,79.8816,301.16,89,79,2.41,LK,1691693373
253,jilib,0.4883,42.7854,296.52,81,35,4.27,SO,1691693374
254,college,64.8569,-147.8028,293.82,93,100,2.06,US,1691693333
255,axim,4.8699,-2.2405,297.45,84,62,3.86,GH,1691693374
256,ciacova,45.5081,21.1286,293.76,64,38,0.78,RO,1691693374
257,vilyuchinsk,52.9306,158.4028,281.3,85,45,1.88,RU,1691693376
258,nykobing sjaelland,55.9249,11.6711,289.33,70,19,7.81,DK,1691693376
259,kavaratti,10.5669,72.642,301.26,77,100,7.53,IN,1691693376
260,jaguaribe,-5.8906,-38.6219,308.74,17,42,3.73,BR,1691693252
261,rufino,-34.2683,-62.7126,295.74,35,38,5.93,AR,1691693377
262,qamdo,31.1667,97.2333,280.7,91,100,0.78,CN,1691693377
263,puerto lempira,15.2667,-83.7667,306.23,58,40,4.12,HN,1691693377
264,lodwar,3.1191,35.5973,304.43,34,8,3.49,KE,1691693378
265,fortuna,40.5982,-124.1573,291.85,91,100,4.12,US,1691693378
266,cidreira,-30.1811,-50.2056,292.29,87,26,3.8,BR,1691693378
267,ravar,31.2656,56.8055,302.13,14,0,4.41,IR,1691693378
268,muroran,42.3172,140.9881,295.11,97,88,5.17,JP,1691693378
269,maintirano,-18.0667,44.0167,296.53,80,4,5.38,MG,1691693379
270,mugia,43.1041,-9.2179,295.32,89,48,4.36,ES,1691693379
271,remire-montjoly,4.9167,-52.2667,305.17,58,20,4.63,GF,1691693379
272,fort bragg,35.139,-79.006,303.23,70,75,7.2,US,1691693379
273,coquimbo,-29.9533,-71.3436,292.0,59,0,6.17,CL,1691693191
274,teluknaga,-6.0989,106.6381,301.69,100,40,1.03,ID,1691693380
275,ust-nera,64.5667,143.2,287.07,61,10,0.75,RU,1691693380
276,marsh harbour,26.5412,-77.0636,303.59,66,35,1.75,BS,1691693295
277,vadso,70.0744,29.7487,297.64,72,0,3.6,NO,1691693380
278,luganville,-15.5333,167.1667,293.17,69,100,5.27,VU,1691693380
279,amahai,-3.3333,128.9167,296.79,87,89,2.03,ID,1691693380
280,ghadamis,30.1337,9.5007,305.42,16,0,6.51,LY,1691693381
281,dadukou,26.5479,101.7054,295.48,94,100,0.09,CN,1691693381
282,kailua-kona,19.6406,-155.9956,302.19,66,0,1.54,US,1691693302
283,minas de marcona,-15.2119,-75.1103,290.42,64,1,8.23,PE,1691693381
284,saint-francois,46.4154,3.9054,300.84,44,0,3.09,FR,1691693381
285,lazaro cardenas,17.9583,-102.2,304.6,62,97,2.69,MX,1691693346
286,bargaal,11.2864,51.0773,299.9,70,97,5.17,SO,1691693382
287,ribeira brava,32.65,-17.0667,301.32,80,0,3.23,PT,1691693382
288,stephenville,32.2207,-98.2023,313.58,29,0,3.6,US,1691693226
289,kayyerkan,69.3786,87.7439,285.54,76,93,11.49,RU,1691693384
290,simanggang,1.2472,111.4528,297.14,100,100,1.03,MY,1691693387
291,kodinar,20.7903,70.7031,299.99,81,100,5.64,IN,1691693387
292,tankara,22.6667,70.7333,300.21,75,100,5.9,IN,1691693387
293,okhotsk,59.3833,143.3,284.8,91,86,2.6,RU,1691693388
294,jinchang,38.4953,102.1739,292.39,77,100,0.82,CN,1691693388
295,hadibu,12.65,54.0333,298.79,80,66,6.63,YE,1691693388
296,port elizabeth,-33.918,25.5701,288.31,88,0,1.03,ZA,1691693389
297,carencro,30.3171,-92.049,310.92,48,75,5.66,US,1691693389
298,puerto rosario,-24.45,-57.0833,310.22,24,0,5.58,PY,1691693389
299,chinde,26.8418,88.0763,292.55,93,100,1.08,NP,1691693389
300,badger,64.8,-147.5333,293.78,94,100,2.06,US,1691693390
301,el matama,16.7095,33.3565,310.0,33,100,4.14,SD,1691693390
302,castillos,-34.1667,-53.8333,291.07,80,100,3.46,UY,1691693390
303,barakani,-12.1356,44.4317,297.62,73,29,5.67,KM,1691693390
304,lyman,48.9884,37.8023,297.12,65,98,3.4,UA,1691693392
305,st. paul,44.9444,-93.0933,300.03,51,0,2.06,US,1691693339
306,dudinka,69.4058,86.1778,285.72,57,61,11.08,RU,1691693392
307,sao tome,0.3365,6.7273,298.04,83,87,3.44,ST,1691693392
308,motueka,-41.1333,173.0167,274.32,82,94,1.93,NZ,1691693392
309,bikenibeu village,1.3673,173.1241,300.13,89,20,0.51,KI,1691693392
310,otjiwarongo,-20.4637,16.6477,289.26,30,15,2.4,NA,1691693393
311,jayapura,-2.5333,140.7,297.81,91,62,2.96,ID,1691693393
312,shuangyang,43.5242,125.6736,293.31,94,100,4.95,CN,1691693394
313,ponta delgada,37.7333,-25.6667,297.55,78,75,4.12,PT,1691693395
314,kajuru,10.3192,7.6892,294.19,95,100,1.32,NG,1691693395
315,posto fiscal rolim de moura,-13.0833,-62.2667,312.59,21,18,1.67,BR,1691693395
316,zarinsk,53.7074,84.9493,290.2,86,100,2.71,RU,1691693396
317,pogradec,40.9025,20.6525,289.15,60,60,1.45,AL,1691693396
318,alice springs,-23.7,133.8833,279.9,61,0,0.0,AU,1691693396
319,vernon,50.2581,-119.2691,296.27,49,86,1.03,CA,1691693396
320,kone,-21.0595,164.8658,286.09,74,0,2.24,NC,1691693397
321,al ghayzah,16.2079,52.176,299.26,87,100,3.65,YE,1691693397
322,progreso de alvaro obregon,20.25,-99.2,301.09,33,47,3.0,MX,1691693397
323,stornoway,58.2093,-6.3865,293.2,81,20,2.57,GB,1691693397
324,ust-tsilma,65.441,52.1498,287.33,71,0,1.55,RU,1691693398
325,medina de rioseco,41.8833,-5.0441,306.17,18,87,0.5,ES,1691693398
326,agat village,13.3886,144.6585,299.67,93,100,2.06,GU,1691693398
327,caycuma,41.4264,32.0756,293.59,96,29,1.65,TR,1691693398
328,kununurra,-15.7667,128.7333,290.14,82,22,1.54,AU,1691693398
329,exu,-7.5119,-39.7242,302.32,38,5,5.31,BR,1691693399
330,strelka,58.0728,93.0344,286.41,89,26,1.32,RU,1691693399
331,kenora,49.8167,-94.4337,288.69,72,100,2.57,CA,1691693256
332,novo aripuana,-5.1206,-60.3797,307.21,41,96,2.4,BR,1691693399
333,lawas,13.764,121.0566,302.03,85,100,5.19,PH,1691693400
334,durant,33.994,-96.3708,311.75,36,0,1.54,US,1691693387
335,tangalle,6.024,80.7911,300.24,89,99,4.1,LK,1691693400
336,nuku'alofa,-21.1333,-175.2,294.34,94,75,2.57,TO,1691693400
337,vorkuta,67.5,64.0,280.78,92,40,3.48,RU,1691693401
338,tezpur,26.6333,92.8,298.98,96,100,1.79,IN,1691693115
339,juneau,58.3019,-134.4197,287.71,100,100,4.63,US,1691693349
340,mamuju,-2.6748,118.8885,298.49,86,100,2.2,ID,1691693402
341,rio verde de mato grosso,-18.9181,-54.8442,310.93,14,0,5.46,BR,1691693402
342,darwin,-12.4611,130.8418,296.14,81,100,1.03,AU,1691693403
343,mermoz boabab,14.7065,-17.4758,303.46,66,40,3.09,SN,1691693403
344,swakopmund,-22.6833,14.5333,287.03,87,60,1.34,NA,1691693404
345,isafjordur,66.0755,-23.124,284.17,58,75,2.57,IS,1691693404
346,arteche,12.2645,125.4048,299.84,82,100,2.82,PH,1691693405
347,nybro,56.7446,15.9071,287.6,85,100,3.5,SE,1691693405
348,rosarito,32.3333,-117.0333,299.22,72,83,3.72,MX,1691693406
349,villa gesell,-37.2639,-56.973,288.74,76,100,5.28,AR,1691693406
350,vernal,40.4555,-109.5287,301.85,27,0,2.68,US,1691693406
351,kalach,50.4258,41.0261,293.94,86,100,8.63,RU,1691693407
352,maturin,9.75,-63.1767,306.06,100,42,3.09,VE,1691693407
353,warrnambool,-38.3833,142.4833,283.84,76,100,4.54,AU,1691693407
354,blenheim,-41.516,173.9528,271.77,92,9,2.73,NZ,1691693408
355,siniscola,40.5719,9.6922,298.9,69,66,1.86,IT,1691693408
356,melfi,40.9965,15.6514,296.46,51,34,1.11,IT,1691693408
357,nha trang,12.25,109.1833,303.15,81,2,2.0,VN,1691693409
358,flying fish cove,-10.4217,105.6791,296.97,88,100,4.63,CX,1691693409
359,saipan,15.1355,145.701,300.54,100,20,3.09,MP,1691693208
360,labrador city,52.9463,-66.9114,289.1,77,75,3.6,CA,1691693409
361,kroonstad,-27.6504,27.2349,283.91,39,0,1.56,ZA,1691693410
362,yemetsk,63.4721,41.7941,292.34,80,10,1.12,RU,1691693410
363,yaren,-0.5472,166.916,300.97,72,7,1.15,NR,1691693410
364,sefrou,33.8319,-4.828,309.68,20,40,7.2,MA,1691693410
365,duzce,40.8389,31.1639,293.94,97,50,0.32,TR,1691693410
366,sogndal,61.2283,7.1003,286.36,76,75,5.66,NO,1691693411
367,sarykemer,43.0,71.5,298.86,27,1,3.5,KZ,1691693411
368,scone,56.4194,-3.4051,295.86,84,52,1.79,GB,1691693411
369,griffith,41.5284,-87.4237,301.42,70,40,4.12,US,1691693412
370,belmonte,-15.8631,-38.8828,297.93,66,51,3.14,BR,1691693412
371,berezovyy,51.6667,135.7,285.96,87,18,0.8,RU,1691693412
372,new norfolk,-42.7826,147.0587,282.99,91,100,1.41,AU,1691693413
373,la pineda,41.0762,1.1852,301.58,72,40,1.54,ES,1691693413
374,kalix,65.853,23.1565,289.36,80,100,3.01,SE,1691693413
375,waitara,-38.925,174.25,278.7,80,0,2.38,NZ,1691693413
376,nogliki,51.8333,143.1667,285.16,95,100,4.11,RU,1691693413
377,khor,47.8861,134.9464,290.56,98,100,2.57,RU,1691693414
378,carthage,36.8611,10.3316,298.89,69,20,2.06,TN,1691693414
379,zeya,53.75,127.2667,288.7,72,97,1.2,RU,1691693414
380,dubrovytsya,51.5744,26.565,289.43,74,46,1.27,UA,1691693415
381,placerville,38.7296,-120.7986,304.8,30,0,2.57,US,1691693410
382,ouesso,1.6136,16.0517,296.73,85,43,1.38,CG,1691693415
383,huarmey,-10.0681,-78.1522,295.95,68,0,5.49,PE,1691693415
384,fort st. john,56.2499,-120.8529,288.09,88,100,4.63,CA,1691693323
385,taoudenni,22.6783,-3.9836,315.23,11,0,2.29,ML,1691693416
386,la sarre,48.8002,-79.1996,292.9,67,31,3.76,CA,1691693416
387,fang,19.9169,99.2145,295.02,99,100,1.07,TH,1691693416
388,princeville,45.7668,-61.2985,294.77,81,100,6.69,CA,1691693416
389,teruel,40.6667,-0.6667,296.38,29,35,3.77,ES,1691693417
390,xining,36.6167,101.7667,290.56,91,92,1.24,CN,1691693417
391,yanchep,-31.55,115.6833,284.23,90,100,3.24,AU,1691693417
392,beledweyne,4.7358,45.2036,301.09,52,100,9.84,SO,1691693417
393,askoy,60.4092,5.226,285.9,38,75,2.57,NO,1691693417
394,el fasher,13.6279,25.3494,305.09,36,10,4.09,SD,1691693418
395,sitka,57.0531,-135.33,288.09,88,100,2.06,US,1691693324
396,pandaria,22.2333,81.4167,298.64,81,17,2.01,IN,1691693419
397,rio gallegos,-51.6226,-69.2181,278.18,75,75,5.66,AR,1691693419
398,kavieng,-2.5744,150.7967,299.33,84,100,5.03,PG,1691693419
399,mount gambier,-37.8333,140.7667,282.05,92,100,2.51,AU,1691693236
400,mitu,1.1983,-70.1733,303.9,62,81,0.77,CO,1691693421
401,dapa,9.7594,126.0531,301.11,76,99,4.63,PH,1691693422
402,harduaganj,27.95,78.1667,303.15,66,33,2.44,IN,1691693422
403,nurota,40.5614,65.6886,300.58,27,0,2.86,UZ,1691693422
404,smithers,54.7804,-127.1743,290.33,63,75,1.03,CA,1691693329
405,yulinshi,38.2906,109.7494,297.39,79,100,1.09,CN,1691693424
406,toliara,-23.35,43.6667,292.34,63,0,7.69,MG,1691693424
407,saudarkrokur,65.7461,-19.6394,281.12,84,100,5.25,IS,1691693424
408,roma,43.2128,-75.4557,296.33,91,100,0.0,US,1691693424
409,evian-les-bains,46.4011,6.5879,298.02,63,97,1.48,FR,1691693426
410,kharabali,47.4196,47.2568,301.51,31,14,4.42,RU,1691693426
411,antonio enes,-16.2325,39.9086,294.72,79,21,4.28,MZ,1691693387
412,silsbee,30.3491,-94.178,310.94,55,0,1.34,US,1691693427
413,vatra dornei,47.35,25.3667,286.8,76,41,0.76,RO,1691693428
414,khasab,26.1799,56.2477,308.77,53,99,2.18,OM,1691693428
415,lebanon,36.2081,-86.2911,299.36,87,100,3.6,US,1691693428
416,slave lake,55.2834,-114.769,287.14,88,100,7.2,CA,1691693428
417,baikunthpur,23.25,82.55,297.23,83,90,1.88,IN,1691693429
418,barkhan,29.8977,69.5256,303.33,47,2,1.88,PK,1691693429
419,argo,37.6333,22.7333,299.7,69,62,0.89,GR,1691693429
420,ulaangom,49.9811,92.0667,289.84,61,20,1.13,MN,1691693429
421,al kharijah,25.4514,30.5464,306.56,19,1,5.09,EG,1691693430
422,oyama,36.3,139.8,298.34,91,0,1.73,JP,1691693430
423,papao,-17.75,-149.55,298.97,66,100,8.56,PF,1691693430
424,santa rosa misiones,-26.8667,-56.85,303.17,52,2,2.72,PY,1691693430
425,surgana,20.5667,73.6167,294.94,93,30,2.07,IN,1691693431
426,buta,2.7858,24.73,294.59,99,100,0.93,CD,1691693431
427,lijiang,26.8688,100.2207,288.75,95,100,1.14,CN,1691693431
428,mount pearl,47.5166,-52.7813,294.18,93,100,3.6,CA,1691693431
429,choyr,46.3611,108.3611,290.49,78,10,3.2,MN,1691693432
430,zyryanovsk,49.7386,84.2719,288.61,81,9,0.82,KZ,1691693432
431,vila velha,-20.3297,-40.2925,298.12,82,75,6.17,BR,1691693432
432,ulverstone,-41.15,146.1667,282.14,88,89,2.67,AU,1691693432
433,armacao de buzios,-22.7469,-41.8817,299.24,80,0,10.15,BR,1691693432
434,puerto cabezas,14.0351,-83.3888,305.13,70,40,3.09,NI,1691693433
435,parkano,62.0167,23.0167,286.99,84,99,3.32,FI,1691693433
436,lammi,61.0833,25.0167,285.65,94,29,3.0,FI,1691693433
437,mokhsogollokh,61.4681,128.9203,284.53,98,3,1.85,RU,1691693433
438,letterkenny,54.95,-7.7333,294.09,89,79,5.86,IE,1691693434
439,lagoa,39.05,-27.9833,295.93,66,13,3.19,PT,1691693434
440,kerikeri,-35.2268,173.9474,278.66,91,63,1.97,NZ,1691693434
441,kiama,-34.6833,150.8667,282.73,72,0,2.24,AU,1691693434
442,ladybrand,-29.1945,27.4574,281.72,46,0,1.49,ZA,1691693435
443,benguela,-12.5763,13.4055,293.32,85,85,1.95,AO,1691693435
444,arvayheer,46.2639,102.775,286.06,72,6,3.04,MN,1691693435
445,hassi messaoud,31.6804,6.0729,312.07,13,0,5.14,DZ,1691693435
446,al bawiti,28.3492,28.8659,303.51,29,0,3.53,EG,1691693435
447,kupang,-10.1667,123.5833,296.35,80,41,4.57,ID,1691693436
448,cockburn town,21.4612,-71.1419,302.25,81,100,8.08,TC,1691693436
449,peniche,39.3558,-9.3811,297.1,78,0,4.96,PT,1691693436
450,eilat,29.5581,34.9482,310.06,23,0,6.17,IL,1691693436
451,shimoda,34.6667,138.95,298.94,88,12,5.1,JP,1691693436
452,boende,-0.2167,20.8667,297.07,86,100,0.64,CD,1691693437
453,lerwick,60.1545,-1.1494,288.15,83,21,3.0,GB,1691693437
454,ulsteinvik,62.3432,5.8487,286.9,88,100,2.68,NO,1691693437
455,pyhajarvi,67.0701,27.2176,287.76,84,21,1.36,FI,1691693437
456,sinop,41.7711,34.8709,292.29,95,97,1.45,TR,1691693437
457,winnemucca,40.973,-117.7357,302.18,18,0,3.09,US,1691693438
458,palembang,-2.9167,104.7458,298.2,100,10,2.57,ID,1691693060
459,as sulayyil,20.4607,45.5779,309.29,9,86,1.63,SA,1691693438
460,luckau,51.85,13.7167,292.25,69,46,1.42,DE,1691693438
461,barranca,-10.75,-77.7667,294.25,72,9,6.18,PE,1691693438
462,keetmanshoop,-26.5833,18.1333,292.66,24,0,4.12,NA,1691693438
463,sinabang,2.4803,96.3801,299.3,83,100,1.86,ID,1691693439
464,pirallahi,40.4723,50.333,301.23,52,0,1.53,AZ,1691693439
465,nacala,-14.5428,40.6728,295.01,72,0,4.83,MZ,1691693439
466,tidjikja,18.5564,-11.4271,312.95,14,7,6.61,MR,1691693439
467,chake chake,-5.2459,39.7666,296.22,81,1,3.65,TZ,1691693439
468,novyy urengoy,66.0833,76.6333,283.71,67,45,9.85,RU,1691693440
469,portales,34.1862,-103.3344,311.67,20,6,5.02,US,1691693440
470,bomi,7.2461,-11.5258,296.49,95,100,2.05,SL,1691693440
471,anloga,5.7947,0.8973,298.1,85,2,5.78,GH,1691693441
472,teluk nibung,3.001,99.8164,297.16,93,73,1.88,ID,1691693441
473,vizinga,61.0749,50.1031,291.06,73,21,0.73,RU,1691693441
474,san luis de la loma,17.2706,-100.8939,304.16,66,100,3.1,MX,1691693441
475,jonquiere,48.4165,-71.2488,296.14,65,89,2.57,CA,1691693159
476,al wafrah,28.6392,47.9306,307.82,35,7,3.94,KW,1691693442
477,san ciro de acosta,21.6333,-99.8167,309.65,28,6,2.05,MX,1691693442
478,port-vila,-17.7338,168.3219,292.93,52,40,4.12,VU,1691693442
479,chui,-33.6971,-53.4616,291.21,80,100,3.85,UY,1691693443
480,mo i rana,66.3128,14.1428,291.41,72,75,3.13,NO,1691693443
481,bakchar,57.0186,82.0711,282.22,97,100,1.82,RU,1691693445
482,hinnerup,56.2661,10.063,289.11,78,11,4.53,DK,1691693445
483,qurayyat,31.3318,37.3428,306.25,27,0,7.2,SA,1691693445
484,astorga,-23.2325,-51.6656,303.28,29,0,4.59,BR,1691693445
485,zaozersk,69.4005,32.4476,292.54,63,0,3.45,RU,1691693446
486,masterton,-40.9597,175.6575,278.09,97,93,1.49,NZ,1691693446
487,mytilene,39.11,26.5547,299.05,61,0,2.57,GR,1691693447
488,brisas de zicatela,15.8369,-97.0419,304.34,65,100,3.26,MX,1691693448
489,chippewa falls,44.9369,-91.3929,298.58,46,0,3.09,US,1691693312
490,miguel ahumada,30.6167,-106.5167,307.35,23,22,3.78,MX,1691693448
491,linqiong,30.4159,103.4609,300.05,88,73,0.94,CN,1691693448
492,camayenne,9.535,-13.6878,300.2,83,75,5.14,GN,1691693449
493,along,28.1667,94.7667,297.7,99,100,0.38,IN,1691693449
494,atbara,17.7022,33.9864,310.57,30,100,4.43,SD,1691693449
495,hovd,48.0056,91.6419,292.27,45,0,1.74,MN,1691693449
496,pedro juan caballero,-22.5472,-55.7333,306.13,31,20,6.17,PY,1691693450
497,mwanza,-2.5167,32.9,296.18,78,20,5.14,TZ,1691693413
498,selfoss,63.9331,-20.9971,293.17,73,10,4.9,IS,1691693451
499,portland,45.5234,-122.6762,298.33,48,75,3.6,US,1691693235
500,mabaruma,8.2,-59.7833,304.42,58,74,3.65,GY,1691693452
501,revelstoke,50.9832,-118.2023,291.16,88,100,1.03,CA,1691693452
502,luwuk,-0.9516,122.7875,297.33,86,99,2.15,ID,1691693453
503,ji'an,27.1172,114.9793,299.55,79,100,0.9,CN,1691693453
504,turtas,58.9417,69.1325,286.19,76,100,3.56,RU,1691693454
505,polyarnyy,69.1989,33.4478,291.95,68,0,4.77,RU,1691693454
506,las tablas,7.7667,-80.2833,303.81,68,95,2.7,PA,1691693194
507,usinsk,65.9939,57.5281,286.43,68,0,3.36,RU,1691693455
508,charnay-les-macon,46.3075,4.7848,297.48,70,20,1.36,FR,1691693455
509,eagle,43.6954,-116.354,301.46,40,0,4.12,US,1691693456
510,chebba,35.2372,11.115,299.31,62,0,3.59,TN,1691693456
511,magadan,59.5667,150.8,284.27,79,4,2.89,RU,1691693456
512,daru,-9.0763,143.2092,297.12,74,97,7.61,PG,1691693456
513,ciudad bolivar,8.1222,-63.5497,309.57,34,51,4.05,VE,1691693456
514,port saint john's,-31.6229,29.5448,291.18,85,8,6.83,ZA,1691693457
515,awjilah,29.1081,21.2869,304.13,31,0,6.44,LY,1691693457
516,chongwe,-15.3292,28.682,288.47,52,1,3.9,ZM,1691693457
517,camana,-16.6228,-72.7111,293.42,72,0,4.93,PE,1691693457
518,rimouski,48.4488,-68.524,288.25,83,100,3.32,CA,1691693342
519,sol'tsy,58.1239,30.3238,289.77,69,100,2.03,RU,1691693458
520,holualoa,19.6228,-155.9522,300.25,66,0,1.54,US,1691693409
521,pemangkat,1.1667,108.9667,299.29,85,99,4.36,ID,1691693458
522,kayangel,8.0823,134.7173,300.68,83,94,8.91,PW,1691693458
523,anori,-3.7728,-61.6442,305.77,45,100,1.15,BR,1691693458
524,pangody,65.85,74.4859,280.69,78,2,8.78,RU,1691693459
525,i-n-salah,27.1935,2.4607,311.63,12,0,4.39,DZ,1691693459
526,ain sukhna,29.6002,32.3167,301.39,61,0,4.49,EG,1691693459
527,umba,66.6871,34.3429,286.85,94,2,2.54,RU,1691693459
528,tvoroyri,61.5556,-6.8111,284.59,95,100,6.7,FO,1691693459
529,bol,13.4586,14.7147,299.59,76,76,1.77,TD,1691693459
530,caninde,-4.3589,-39.3117,308.09,21,6,3.85,BR,1691693460
531,khandyga,62.6667,135.6,286.19,65,21,1.55,RU,1691693460
532,sola,-13.8833,167.55,296.52,73,100,5.14,VU,1691693460
533,yigo village,13.5361,144.8886,298.77,92,40,3.6,GU,1691693460
534,kijang,35.2442,129.2139,297.0,87,0,4.05,KR,1691693460
535,adler,43.43,39.92,301.24,83,20,3.13,RU,1691693349
536,swift current,50.2834,-107.8014,294.6,60,0,4.63,CA,1691693289
537,misratah,32.3754,15.0925,299.35,61,0,4.18,LY,1691693351
538,dunbar,38.3606,-81.7374,299.36,91,75,2.06,US,1691693241
539,elverum,60.8819,11.5623,284.63,88,32,1.17,NO,1691693461
540,lorengau,-2.0226,147.2712,300.54,78,100,6.0,PG,1691693461
541,coahuayana de hidalgo,18.7,-103.6583,306.85,53,98,2.57,MX,1691693462
542,tocopilla,-22.092,-70.1979,293.84,68,80,6.5,CL,1691693462
543,malampaka,-3.1333,33.5333,298.94,36,100,1.96,TZ,1691693462
544,yarmouth,41.7057,-70.2286,301.41,67,0,4.63,US,1691693463
545,tondano,1.3038,124.9112,294.2,93,100,1.62,ID,1691693463
546,skeldon,5.8833,-57.1333,303.58,59,86,3.85,GY,1691693463
547,lagonegro,40.1283,15.7615,290.54,75,3,0.83,IT,1691693234
548,novyy urgal,51.0736,132.5642,288.96,78,74,0.82,RU,1691693463
549,mohale's hoek,-30.1514,27.4769,284.47,42,1,2.15,LS,1691693464
550,cururupu,-1.8283,-44.8683,302.37,63,47,3.02,BR,1691693271
551,bamboo flat,11.7,92.7167,300.2,89,75,2.57,IN,1691693464
552,palapag,12.5458,125.1147,300.13,81,100,3.71,PH,1691693465
553,cole harbour,44.6724,-63.4751,300.33,57,40,7.72,CA,1691693465
554,el tigre,8.8875,-64.2454,307.06,39,34,5.25,VE,1691693465
555,waingapu,-9.6567,120.2641,295.75,80,100,2.98,ID,1691693465
556,chanute,37.6792,-95.4572,305.07,58,0,2.06,US,1691693465
557,salym,60.0625,71.4789,286.55,70,100,4.81,RU,1691693466
558,pontianak,-0.0333,109.3333,298.14,100,100,0.51,ID,1691693466
559,dunedin,-45.8742,170.5036,275.82,77,100,2.11,NZ,1691693467
560,padang,-0.9492,100.3543,298.18,89,44,1.88,ID,1691693467
561,muynoq,43.7683,59.0214,300.21,37,0,3.37,UZ,1691693467
562,tionk essil,12.7856,-16.5217,305.18,71,100,4.38,SN,1691693467
563,christchurch,-43.5333,172.6333,274.79,87,100,1.03,NZ,1691693468
564,swan hill,-35.3378,143.5544,279.0,91,0,1.2,AU,1691693468
